{
  "data": [
    {
      "uid": "AT4024",
      "name": "展書樓",
      "name_en": "Jan Shu Hall",
      "wkt": "POINT (121.5365973844509 25.01477662088664)",
      "lon": "121.5365973844509",
      "lat": "25.01477662088664"
    },
    {
      "uid": "AT2035",
      "name": "四號館",
      "name_en": "Building No.4",
      "wkt": "POINT (121.53764574985347 25.01686153882603)",
      "lon": "121.53764574985347",
      "lat": "25.01686153882603"
    },
    {
      "uid": "BT1011-A",
      "name": "諮商輔導室及理髮室 (舊址)",
      "name_en": "Guidance Center and Hair Salon ( former site)",
      "wkt": "POINT (121.52520192302295 25.0404886244108)",
      "lon": "121.52520192302295",
      "lat": "25.0404886244108"
    },
    {
      "uid": "AT2026",
      "name": "第一男研究生宿舍",
      "name_en": "1st Men's Graduate Dorm",
      "wkt": "POINT (121.53572112011204 25.01505232024162)",
      "lon": "121.53572112011204",
      "lat": "25.01505232024162"
    },
    {
      "uid": "AT6010",
      "name": "資源回收場",
      "name_en": "Recycling Center",
      "wkt": "POINT (121.54560709407308 25.011431528693354)",
      "lon": "121.54560709407308",
      "lat": "25.011431528693354"
    },
    {
      "uid": "BT1008",
      "name": "行政大樓 (城中校區)",
      "name_en": "Administration Building (Downtown Campus)",
      "wkt": "POINT (121.52454667726204 25.040959955291658)",
      "lon": "121.52454667726204",
      "lat": "25.040959955291658"
    },
    {
      "uid": "AT2007",
      "name": "化學工程館",
      "name_en": "Dept. of Chemical Engineering",
      "wkt": "POINT (121.53830115979528 25.018172681772057)",
      "lon": "121.53830115979528",
      "lat": "25.018172681772057"
    },
    {
      "uid": "AT4029-A",
      "name": "雅頌坊",
      "name_en": "The Odeum",
      "wkt": "POINT (121.53873649685815 25.013777938562168)",
      "lon": "121.53873649685815",
      "lat": "25.013777938562168"
    },
    {
      "uid": "AT3009",
      "name": "知武館",
      "name_en": "Tomatake Hall",
      "wkt": "POINT (121.54284791017639 25.01829317086199)",
      "lon": "121.54284791017639",
      "lat": "25.01829317086199"
    },
    {
      "uid": "AT5017-A",
      "name": "男一舍餐廳",
      "name_en": "1st Men's Dorm Restaurant",
      "wkt": "POINT (121.5446462059004 25.01594039888574)",
      "lon": "121.5446462059004",
      "lat": "25.01594039888574"
    },
    {
      "uid": "AT1002-S",
      "name": "體育組器材倉庫",
      "name_en": null,
      "wkt": "POINT (121.53425064238512 25.019681093396787)",
      "lon": "121.53425064238512",
      "lat": "25.019681093396787"
    },
    {
      "uid": "AT1012-A",
      "name": "水中涼亭",
      "name_en": "Gazebo on Drunken Moon Lake",
      "wkt": "POINT (121.53761248359717 25.020421469910538)",
      "lon": "121.53761248359717",
      "lat": "25.020421469910538"
    },
    {
      "uid": "AT1034",
      "name": "心理系南館",
      "name_en": "Dept. of Psychology (South Hall)",
      "wkt": "POINT (121.5402318862686 25.019600861983154)",
      "lon": "121.5402318862686",
      "lat": "25.019600861983154"
    },
    {
      "uid": "AT1028-E",
      "name": "女九餐廳",
      "name_en": "9th Women's Dorm Restaurant",
      "wkt": "POINT (121.5394005334129 25.0194360878017)",
      "lon": "121.5394005334129",
      "lat": "25.0194360878017"
    },
    {
      "uid": "AT5039-B",
      "name": "昆蟲館力霸網室",
      "name_en": null,
      "wkt": "POINT (121.54083514637765 25.01121079446985)",
      "lon": "121.54083514637765",
      "lat": "25.01121079446985"
    },
    {
      "uid": "AT4003-B",
      "name": "船模試驗室車棚",
      "name_en": null,
      "wkt": "POINT (121.54233016713924 25.017076914408328)",
      "lon": "121.54233016713924",
      "lat": "25.017076914408328"
    },
    {
      "uid": "AT2011",
      "name": "第一學生活動中心",
      "name_en": "1st Student Activity Center",
      "wkt": "POINT (121.54011722109686 25.01802557544975)",
      "lon": "121.54011722109686",
      "lat": "25.01802557544975"
    },
    {
      "uid": "AT3047",
      "name": "鄭江樓",
      "name_en": "Tseng Jiang Hall",
      "wkt": "POINT (121.54285242519097 25.018816276641576)",
      "lon": "121.54285242519097",
      "lat": "25.018816276641576"
    },
    {
      "uid": "AT2032-2",
      "name": "行政大樓",
      "name_en": "Administration Building",
      "wkt": "POINT (121.53679375993893 25.01579911498947)",
      "lon": "121.53679375993893",
      "lat": "25.01579911498947"
    },
    {
      "uid": "AT6016-B",
      "name": "植物育種研究溫室之棚架",
      "name_en": null,
      "wkt": "POINT (121.54796487468657 25.013022253767815)",
      "lon": "121.54796487468657",
      "lat": "25.013022253767815"
    },
    {
      "uid": "AT1009",
      "name": "普通教學館",
      "name_en": "Putong Lecture Building",
      "wkt": "POINT (121.53674118055652 25.018546113489815)",
      "lon": "121.53674118055652",
      "lat": "25.018546113489815"
    },
    {
      "uid": "AT5037-I",
      "name": "牛棚",
      "name_en": null,
      "wkt": "POINT (121.54407027017773 25.012745306258616)",
      "lon": "121.54407027017773",
      "lat": "25.012745306258616"
    },
    {
      "uid": "BT1010",
      "name": "經研大樓",
      "name_en": "Dept. of Economics (former site)",
      "wkt": "POINT (121.52460897554634 25.041686917739245)",
      "lon": "121.52460897554634",
      "lat": "25.041686917739245"
    },
    {
      "uid": "AT6016",
      "name": "植物育種研究溫室",
      "name_en": null,
      "wkt": "POINT (121.54801978581968 25.01276075377036)",
      "lon": "121.54801978581968",
      "lat": "25.01276075377036"
    },
    {
      "uid": "AT5001",
      "name": "男八舍",
      "name_en": "8th Men's Dorm",
      "wkt": "POINT (121.54517042514422 25.017102659439114)",
      "lon": "121.54517042514422",
      "lat": "25.017102659439114"
    },
    {
      "uid": "AT2028-A",
      "name": "電子顯微鏡館",
      "name_en": null,
      "wkt": "POINT (121.5357706814063 25.016318480353487)",
      "lon": "121.5357706814063",
      "lat": "25.016318480353487"
    },
    {
      "uid": "AT4002",
      "name": "納環館",
      "name_en": "Nano Environment Building",
      "wkt": "POINT (121.54361362887005 25.01726776381769)",
      "lon": "121.54361362887005",
      "lat": "25.01726776381769"
    },
    {
      "uid": "KT0028",
      "name": "育成中心A棟",
      "name_en": "Incubation Center Building A",
      "wkt": "POINT (121.5297470443867 25.013470062244135)",
      "lon": "121.5297470443867",
      "lat": "25.013470062244135"
    },
    {
      "uid": "AT2043",
      "name": "水工試驗所",
      "name_en": "Hydrotech Research Institute",
      "wkt": "POINT (121.53909219369328 25.016606848329086)",
      "lon": "121.53909219369328",
      "lat": "25.016606848329086"
    },
    {
      "uid": "AT4026-1",
      "name": "推廣教育大樓一號館",
      "name_en": "Continuing Education Building No.1",
      "wkt": "POINT (121.53725833861951 25.012093398791873)",
      "lon": "121.53725833861951",
      "lat": "25.012093398791873"
    },
    {
      "uid": "AT1046",
      "name": "次震宇宙館",
      "name_en": "Chee-Chun Leung Cosmology Hall",
      "wkt": "POINT (121.53741301163197 25.021788293854907)",
      "lon": "121.53741301163197",
      "lat": "25.021788293854907"
    },
    {
      "uid": "AT1033",
      "name": "心理系北館",
      "name_en": "Dept. of Psychology (North Hall)",
      "wkt": "POINT (121.54024861126959 25.020046516033936)",
      "lon": "121.54024861126959",
      "lat": "25.020046516033936"
    },
    {
      "uid": "AT4018",
      "name": "地理系館",
      "name_en": "Dept. of Geography",
      "wkt": "POINT (121.53833292714847 25.015021283814313)",
      "lon": "121.53833292714847",
      "lat": "25.015021283814313"
    },
    {
      "uid": "AT4024-1",
      "name": "展書樓",
      "name_en": "Jan Shu Hall",
      "wkt": "POINT (121.53672428644511 25.014582059617744)",
      "lon": "121.53672428644511",
      "lat": "25.014582059617744"
    },
    {
      "uid": "KT0026",
      "name": "育成中心C棟",
      "name_en": "Incubation Center Building C",
      "wkt": "POINT (121.52902951766309 25.012835900395594)",
      "lon": "121.52902951766309",
      "lat": "25.012835900395594"
    },
    {
      "uid": "AT2016",
      "name": "漁業陳列館",
      "name_en": null,
      "wkt": "POINT (121.53454651294132 25.016545514523923)",
      "lon": "121.53454651294132",
      "lat": "25.016545514523923"
    },
    {
      "uid": "AT2017",
      "name": "女一舍",
      "name_en": "1st Women's Dorm",
      "wkt": "POINT (121.5345192458923 25.016294149890367)",
      "lon": "121.5345192458923",
      "lat": "25.016294149890367"
    },
    {
      "uid": "AT2027-A",
      "name": "二號館",
      "name_en": "Building No.2",
      "wkt": "POINT (121.53605252664264 25.01672288172189)",
      "lon": "121.53605252664264",
      "lat": "25.01672288172189"
    },
    {
      "uid": "BT1014-D",
      "name": "法學院機電室",
      "name_en": null,
      "wkt": "POINT (121.52586164868639 25.041384096129054)",
      "lon": "121.52586164868639",
      "lat": "25.041384096129054"
    },
    {
      "uid": "AT4023-2",
      "name": "地質系",
      "name_en": "Dept. of Geosciences",
      "wkt": "POINT (121.53689290908014 25.014825365383047)",
      "lon": "121.53689290908014",
      "lat": "25.014825365383047"
    },
    {
      "uid": "AT5014",
      "name": "生物技術研究中心",
      "name_en": "Center for Biotechnology",
      "wkt": "POINT (121.5471808988121 25.015693605215024)",
      "lon": "121.5471808988121",
      "lat": "25.015693605215024"
    },
    {
      "uid": "AT1011-1",
      "name": "海洋研究所",
      "name_en": "Graduate Institute of Oceanography",
      "wkt": "POINT (121.53761286380804 25.021375073518005)",
      "lon": "121.53761286380804",
      "lat": "25.021375073518005"
    },
    {
      "uid": "AT2021",
      "name": "植物標本館",
      "name_en": "Herbarium (TAI)",
      "wkt": "POINT (121.53518427155775 25.016469036466788)",
      "lon": "121.53518427155775",
      "lat": "25.016469036466788"
    },
    {
      "uid": "AT2046",
      "name": "林產館",
      "name_en": "Forestry Hall",
      "wkt": "POINT (121.53966233828696 25.016650734859006)",
      "lon": "121.53966233828696",
      "lat": "25.016650734859006"
    },
    {
      "uid": "AT4005",
      "name": "嚴慶齡工業研究中心",
      "name_en": "Yen Tjing Ling Industrial Research Institute",
      "wkt": "POINT (121.54307132719327 25.01674746961937)",
      "lon": "121.54307132719327",
      "lat": "25.01674746961937"
    },
    {
      "uid": "CT1007",
      "name": "聯合教學館",
      "name_en": "Joint Teaching Building",
      "wkt": "POINT (121.52015801820747 25.039736302868643)",
      "lon": "121.52015801820747",
      "lat": "25.039736302868643"
    },
    {
      "uid": "CN1004",
      "name": "基礎醫學大樓",
      "name_en": "Basic Medical Science Building",
      "wkt": "POINT (121.51965205380036 25.039534534826796)",
      "lon": "121.51965205380036",
      "lat": "25.039534534826796"
    },
    {
      "uid": "AT2023",
      "name": "大一女舍",
      "name_en": "Freshman Women's Dorm",
      "wkt": "POINT (121.5348572234983 25.015061439728086)",
      "lon": "121.5348572234983",
      "lat": "25.015061439728086"
    },
    {
      "uid": "AT3049",
      "name": "學新館",
      "name_en": "MK Innovation Hall",
      "wkt": "POINT (121.54374647863007 25.019051563592814)",
      "lon": "121.54374647863007",
      "lat": "25.019051563592814"
    },
    {
      "uid": "AT2042",
      "name": "森林館",
      "name_en": "Forestry Building",
      "wkt": "POINT (121.53899784075739 25.016882370511325)",
      "lon": "121.53899784075739",
      "lat": "25.016882370511325"
    },
    {
      "uid": "AT6015",
      "name": "實驗動物資源中心",
      "name_en": "Animal Resource Center, ARC",
      "wkt": "POINT (121.54530795946212 25.01185597134609)",
      "lon": "121.54530795946212",
      "lat": "25.01185597134609"
    },
    {
      "uid": "AT2034-C",
      "name": "小小福",
      "name_en": "Xiao-Xiao-Fu Food Services",
      "wkt": "POINT (121.53701394447428 25.015447552506732)",
      "lon": "121.53701394447428",
      "lat": "25.015447552506732"
    },
    {
      "uid": "AT4034",
      "name": "食品研發大樓",
      "name_en": "Food Research & Development Building",
      "wkt": "POINT (121.5393051032722 25.013876100790306)",
      "lon": "121.5393051032722",
      "lat": "25.013876100790306"
    },
    {
      "uid": "AT3043",
      "name": "獸醫系三館",
      "name_en": "Building 3, Dept. of Veterinary Medicine",
      "wkt": "POINT (121.5422788899536 25.018252635427157)",
      "lon": "121.5422788899536",
      "lat": "25.018252635427157"
    },
    {
      "uid": "AT4035",
      "name": "明達館",
      "name_en": "Ming - Da Hall",
      "wkt": "POINT (121.54435435709368 25.017823127184332)",
      "lon": "121.54435435709368",
      "lat": "25.017823127184332"
    },
    {
      "uid": "AT5038-H",
      "name": "豬舍",
      "name_en": null,
      "wkt": "POINT (121.54393740555781 25.0134510236268)",
      "lon": "121.54393740555781",
      "lat": "25.0134510236268"
    },
    {
      "uid": "AT4021",
      "name": "園產品加工館",
      "name_en": "Horticultural Crops Processing Building",
      "wkt": "POINT (121.53935206189703 25.013538448123196)",
      "lon": "121.53935206189703",
      "lat": "25.013538448123196"
    },
    {
      "uid": "AT4029",
      "name": "管理學院教研館",
      "name_en": "Teaching and Research Building, College of Management",
      "wkt": "POINT (121.53882202452601 25.013124924724636)",
      "lon": "121.53882202452601",
      "lat": "25.013124924724636"
    },
    {
      "uid": "BT1011-B",
      "name": "社科院警衛室 (舊址)",
      "name_en": "Security Guard (former site)",
      "wkt": "POINT (121.52511576953047 25.040525370732144)",
      "lon": "121.52511576953047",
      "lat": "25.040525370732144"
    },
    {
      "uid": "AT2018",
      "name": "女三舍",
      "name_en": "3rd Women's Dorm",
      "wkt": "POINT (121.53443145336958 25.01597960302105)",
      "lon": "121.53443145336958",
      "lat": "25.01597960302105"
    },
    {
      "uid": "AT4023-B",
      "name": null,
      "name_en": null,
      "wkt": "POINT (121.53739874017789 25.014497967785257)",
      "lon": "121.53739874017789",
      "lat": "25.014497967785257"
    },
    {
      "uid": "AT2027-2",
      "name": "二號館",
      "name_en": "Building No.2",
      "wkt": "POINT (121.53551549791848 25.01667929314933)",
      "lon": "121.53551549791848",
      "lat": "25.01667929314933"
    },
    {
      "uid": "AT5037-F",
      "name": "畜牧分場辦公室",
      "name_en": null,
      "wkt": "POINT (121.54399854182742 25.012861073843954)",
      "lon": "121.54399854182742",
      "lat": "25.012861073843954"
    },
    {
      "uid": "CN000X",
      "name": "臺大醫院",
      "name_en": "National Taiwan University Hospital (NTUH)",
      "wkt": "POINT (121.5172496516474 25.041649926226064)",
      "lon": "121.5172496516474",
      "lat": "25.041649926226064"
    },
    {
      "uid": "AT4033",
      "name": "尊賢館",
      "name_en": "Tsun Hsien Hall",
      "wkt": "POINT (121.5363728671386 25.013459893012367)",
      "lon": "121.5363728671386",
      "lat": "25.013459893012367"
    },
    {
      "uid": "AT1041",
      "name": "新月台",
      "name_en": "New Moon Pavilion",
      "wkt": "POINT (121.53401203004279 25.018572335544675)",
      "lon": "121.53401203004279",
      "lat": "25.018572335544675"
    },
    {
      "uid": "AT3035",
      "name": "國青大樓",
      "name_en": "Guo - Ching Building",
      "wkt": "POINT (121.54437705151688 25.02034223586139)",
      "lon": "121.54437705151688",
      "lat": "25.02034223586139"
    },
    {
      "uid": "AT2049",
      "name": "綜合教學館",
      "name_en": "Zonghe Lecture Building",
      "wkt": "POINT (121.53950270367108 25.0182072168648)",
      "lon": "121.53950270367108",
      "lat": "25.0182072168648"
    },
    {
      "uid": "CT1003",
      "name": "醫學人文館",
      "name_en": "Medical Humanity Building",
      "wkt": "POINT (121.51870512607444 25.039605166806986)",
      "lon": "121.51870512607444",
      "lat": "25.039605166806986"
    },
    {
      "uid": "AT2032",
      "name": "行政大樓 (校總區)",
      "name_en": "Administration Building (main campus)",
      "wkt": "POINT (121.53678368236564 25.016291668508945)",
      "lon": "121.53678368236564",
      "lat": "25.016291668508945"
    },
    {
      "uid": "AT5018",
      "name": "男三舍",
      "name_en": "3rd Men's Dorm",
      "wkt": "POINT (121.54540051805378 25.01580031660644)",
      "lon": "121.54540051805378",
      "lat": "25.01580031660644"
    },
    {
      "uid": "KT0029",
      "name": "水源校區行政大樓",
      "name_en": "Administration Building (Shuiyuan Campus)",
      "wkt": "POINT (121.52959287130683 25.013785465731)",
      "lon": "121.52959287130683",
      "lat": "25.013785465731"
    },
    {
      "uid": "AT4018-A",
      "name": "浩瀚樓",
      "name_en": "Hao-han Hall",
      "wkt": "POINT (121.53844682710974 25.014780412259082)",
      "lon": "121.53844682710974",
      "lat": "25.014780412259082"
    },
    {
      "uid": "AT5037-C",
      "name": "肉品製造學研究室",
      "name_en": null,
      "wkt": "POINT (121.54408155943122 25.01211516747666)",
      "lon": "121.54408155943122",
      "lat": "25.01211516747666"
    },
    {
      "uid": "AT1004",
      "name": "全球變遷中心",
      "name_en": "Global Change Research Center",
      "wkt": "POINT (121.53664767671403 25.02131091015883)",
      "lon": "121.53664767671403",
      "lat": "25.02131091015883"
    },
    {
      "uid": "AT4026-4",
      "name": "建築與城鄉研究所",
      "name_en": "Graduate Institute of Building and Planning",
      "wkt": "POINT (121.53743261113542 25.012185169705937)",
      "lon": "121.53743261113542",
      "lat": "25.012185169705937"
    },
    {
      "uid": "AT5037-K",
      "name": "牛奶加工室",
      "name_en": null,
      "wkt": "POINT (121.5437320283464 25.012628391379522)",
      "lon": "121.5437320283464",
      "lat": "25.012628391379522"
    },
    {
      "uid": "AT4021-A",
      "name": "園產品加工館",
      "name_en": "Horticultural Crops Processing Building",
      "wkt": "POINT (121.53958836177624 25.01358516108147)",
      "lon": "121.53958836177624",
      "lat": "25.01358516108147"
    },
    {
      "uid": "AT5037-G",
      "name": "牛棚",
      "name_en": null,
      "wkt": "POINT (121.54416572646772 25.01284960332938)",
      "lon": "121.54416572646772",
      "lat": "25.01284960332938"
    },
    {
      "uid": "AT2005",
      "name": "舊圖書館",
      "name_en": "Old Main Library",
      "wkt": "POINT (121.53530509005716 25.017710357226015)",
      "lon": "121.53530509005716",
      "lat": "25.017710357226015"
    },
    {
      "uid": "AT3046",
      "name": "社會科學院大樓",
      "name_en": "College of social Sciences Building",
      "wkt": "POINT (121.54232221069624 25.02062042278137)",
      "lon": "121.54232221069624",
      "lat": "25.02062042278137"
    },
    {
      "uid": "AT2008",
      "name": "土木系",
      "name_en": "Dept. of Civil Engineering",
      "wkt": "POINT (121.53830717048925 25.0178062293366)",
      "lon": "121.53830717048925",
      "lat": "25.0178062293366"
    },
    {
      "uid": "AT4030",
      "name": "第二學生活動中心",
      "name_en": "2nd Student Activity Center",
      "wkt": "POINT (121.53661013596209 25.012957164373443)",
      "lon": "121.53661013596209",
      "lat": "25.012957164373443"
    },
    {
      "uid": "AT2027",
      "name": "二號館",
      "name_en": "Building No.2",
      "wkt": "POINT (121.53591488094034 25.016843404899262)",
      "lon": "121.53591488094034",
      "lat": "25.016843404899262"
    },
    {
      "uid": "KT0043",
      "name": "思源樓",
      "name_en": "SiYuan Hall",
      "wkt": "POINT (121.52864569815593 25.0131890459529)",
      "lon": "121.52864569815593",
      "lat": "25.0131890459529"
    },
    {
      "uid": "BT1007",
      "name": "女四宿舍",
      "name_en": "4th Women's Dorm",
      "wkt": "POINT (121.52386686578924 25.04182228712393)",
      "lon": "121.52386686578924",
      "lat": "25.04182228712393"
    },
    {
      "uid": "AT3041",
      "name": "圖書館",
      "name_en": "Main Library",
      "wkt": "POINT (121.54105518046293 25.017498266403706)",
      "lon": "121.54105518046293",
      "lat": "25.017498266403706"
    },
    {
      "uid": "BT1014",
      "name": "後排教室",
      "name_en": "Classroom Building(ΙΙ)",
      "wkt": "POINT (121.5253725759126 25.041501944182503)",
      "lon": "121.5253725759126",
      "lat": "25.041501944182503"
    },
    {
      "uid": "AT1042",
      "name": "積學館",
      "name_en": "Ji-Xue Hall",
      "wkt": "POINT (121.53810542728489 25.019100251359855)",
      "lon": "121.53810542728489",
      "lat": "25.019100251359855"
    },
    {
      "uid": "AT5037-P",
      "name": "畜牧系污水處理場",
      "name_en": null,
      "wkt": "POINT (121.54452248857731 25.012824863194034)",
      "lon": "121.54452248857731",
      "lat": "25.012824863194034"
    },
    {
      "uid": "AT5037-R",
      "name": "雞舍",
      "name_en": null,
      "wkt": "POINT (121.54463551382322 25.01268992280902)",
      "lon": "121.54463551382322",
      "lat": "25.01268992280902"
    },
    {
      "uid": "AT1020",
      "name": "新生教學館",
      "name_en": "Xinsheng Lecture Building",
      "wkt": "POINT (121.53842263748888 25.0197432166619)",
      "lon": "121.53842263748888",
      "lat": "25.0197432166619"
    },
    {
      "uid": "KT0100-B",
      "name": "太子學舍水源舍區",
      "name_en": "Prince House-NTU ShuiYuan Dorms",
      "wkt": "POINT (121.52985109993654 25.01509489155814)",
      "lon": "121.52985109993654",
      "lat": "25.01509489155814"
    },
    {
      "uid": "BT1012",
      "name": "社科院圖書分館",
      "name_en": "Law and Social Sciences Library",
      "wkt": "POINT (121.52556574539067 25.04088791426573)",
      "lon": "121.52556574539067",
      "lat": "25.04088791426573"
    },
    {
      "uid": "CT1007-A",
      "name": "圓形小劇場",
      "name_en": "Round Theater",
      "wkt": "POINT (121.5204803056616 25.039658998883358)",
      "lon": "121.5204803056616",
      "lat": "25.039658998883358"
    },
    {
      "uid": "AT5041",
      "name": "動物醫院",
      "name_en": "NTU Veterinary Hospital",
      "wkt": "POINT (121.54317263990447 25.015492783411325)",
      "lon": "121.54317263990447",
      "lat": "25.015492783411325"
    },
    {
      "uid": "KT0021",
      "name": "計畫辦公室",
      "name_en": "Research Project Office",
      "wkt": "POINT (121.52796554893152 25.013357984398926)",
      "lon": "121.52796554893152",
      "lat": "25.013357984398926"
    },
    {
      "uid": "AT5019",
      "name": "男五舍",
      "name_en": "5th Men's Dorm",
      "wkt": "POINT (121.54490250393977 25.015556167357907)",
      "lon": "121.54490250393977",
      "lat": "25.015556167357907"
    },
    {
      "uid": "AT4019-C",
      "name": "氣象館",
      "name_en": "Dept. of Atmospheric Sciences",
      "wkt": "POINT (121.53872327636077 25.014982632439587)",
      "lon": "121.53872327636077",
      "lat": "25.014982632439587"
    },
    {
      "uid": "AT3040",
      "name": "新聞研究所",
      "name_en": "Graduate Institute of Journalism",
      "wkt": "POINT (121.5429511067252 25.01942180333078)",
      "lon": "121.5429511067252",
      "lat": "25.01942180333078"
    },
    {
      "uid": "AT5021",
      "name": "男七舍",
      "name_en": "7th Men's Dorm",
      "wkt": "POINT (121.54687157093564 25.014764392549594)",
      "lon": "121.54687157093564",
      "lat": "25.014764392549594"
    },
    {
      "uid": "AT2005-A",
      "name": "總圖空調變電站",
      "name_en": null,
      "wkt": "POINT (121.53499012948568 25.01788928871307)",
      "lon": "121.53499012948568",
      "lat": "25.01788928871307"
    },
    {
      "uid": "AT5038",
      "name": "畜產製造學研究室",
      "name_en": null,
      "wkt": "POINT (121.5435158787438 25.012855890679635)",
      "lon": "121.5435158787438",
      "lat": "25.012855890679635"
    },
    {
      "uid": "AT3005",
      "name": "獸醫館",
      "name_en": "Dept. of Veterinary Medicine",
      "wkt": "POINT (121.54183828553799 25.018253122226202)",
      "lon": "121.54183828553799",
      "lat": "25.018253122226202"
    },
    {
      "uid": "AT1030",
      "name": "國立臺灣大學工學博物館",
      "name_en": "NTU Museum of Engineering",
      "wkt": "POINT (121.54015152753152 25.018645359619097)",
      "lon": "121.54015152753152",
      "lat": "25.018645359619097"
    },
    {
      "uid": "AT2028",
      "name": "三號館",
      "name_en": "Building No.3",
      "wkt": "POINT (121.53590916963593 25.01649568643102)",
      "lon": "121.53590916963593",
      "lat": "25.01649568643102"
    },
    {
      "uid": "MT1001",
      "name": "碧禎館",
      "name_en": "",
      "wkt": "POINT (121.01995068085687 24.825456889926745)",
      "lon": "121.01995068085687",
      "lat": "24.825456889926745"
    },
    {
      "uid": "AT6009",
      "name": "芳蘭大厝",
      "name_en": "Fanglan Mansion",
      "wkt": "POINT (121.5480128603852 25.013311307910072)",
      "lon": "121.5480128603852",
      "lat": "25.013311307910072"
    },
    {
      "uid": "AT5017",
      "name": "男一舍",
      "name_en": "1st Men's Dorm",
      "wkt": "POINT (121.54439491603854 25.01643551129922)",
      "lon": "121.54439491603854",
      "lat": "25.01643551129922"
    },
    {
      "uid": "AT5038-I",
      "name": "動物實驗舍",
      "name_en": null,
      "wkt": "POINT (121.54383087155216 25.013085000069704)",
      "lon": "121.54383087155216",
      "lat": "25.013085000069704"
    },
    {
      "uid": "AT3038",
      "name": "社會及社工館",
      "name_en": "Dept. of Sociology / Dept. of Social Work",
      "wkt": "POINT (121.54165480138106 25.020186665721962)",
      "lon": "121.54165480138106",
      "lat": "25.020186665721962"
    },
    {
      "uid": "BT1005-A",
      "name": "女七舍餐廳",
      "name_en": "7th Women's Dorm Restaurant",
      "wkt": "POINT (121.52409759529279 25.04150419643703)",
      "lon": "121.52409759529279",
      "lat": "25.04150419643703"
    },
    {
      "uid": "AT1022-A",
      "name": "生化所擴建",
      "name_en": null,
      "wkt": "POINT (121.53843358362788 25.019348257625005)",
      "lon": "121.53843358362788",
      "lat": "25.019348257625005"
    },
    {
      "uid": "AT2045",
      "name": "保健中心",
      "name_en": "Health Center",
      "wkt": "POINT (121.53960091669987 25.016848318924172)",
      "lon": "121.53960091669987",
      "lat": "25.016848318924172"
    },
    {
      "uid": "AT4009-A",
      "name": "人工氣候室",
      "name_en": "Phytotron",
      "wkt": "POINT (121.54102891138747 25.01612883696035)",
      "lon": "121.54102891138747",
      "lat": "25.01612883696035"
    },
    {
      "uid": "AT1036",
      "name": "應用力學館",
      "name_en": "Institute of Applied Mechanics",
      "wkt": "POINT (121.540830265017 25.019823906442134)",
      "lon": "121.540830265017",
      "lat": "25.019823906442134"
    },
    {
      "uid": "AT2034-B",
      "name": "",
      "name_en": "",
      "wkt": "POINT (121.53689555018379 25.01531057213675)",
      "lon": "121.53689555018379",
      "lat": "25.01531057213675"
    },
    {
      "uid": "BT1013",
      "name": "前排教室",
      "name_en": "Classroom Building(Ι)",
      "wkt": "POINT (121.52521371732472 25.041267948760034)",
      "lon": "121.52521371732472",
      "lat": "25.041267948760034"
    },
    {
      "uid": "AT2004-F",
      "name": "大門口警衛室(古蹟)",
      "name_en": "Main Gate",
      "wkt": "POINT (121.53384138853524 25.01692352050076)",
      "lon": "121.53384138853524",
      "lat": "25.01692352050076"
    },
    {
      "uid": "AT2050",
      "name": "人文館",
      "name_en": "",
      "wkt": "POINT (121.53418241674854 25.017756363708507)",
      "lon": "121.53418241674854",
      "lat": "25.017756363708507"
    },
    {
      "uid": "AT4039",
      "name": "臺大立體機車停車場",
      "name_en": "NTU Motorcycle Parking Lot",
      "wkt": "POINT (121.5425186921247 25.016289839877626)",
      "lon": "121.5425186921247",
      "lat": "25.016289839877626"
    },
    {
      "uid": "KT0025",
      "name": "澄思樓",
      "name_en": "Halcyon House",
      "wkt": "POINT (121.52888118742233 25.012644588244935)",
      "lon": "121.52888118742233",
      "lat": "25.012644588244935"
    },
    {
      "uid": "AT1027",
      "name": "女八舍",
      "name_en": "8th Women's Dorm",
      "wkt": "POINT (121.53943074515496 25.020046584646163)",
      "lon": "121.53943074515496",
      "lat": "25.020046584646163"
    },
    {
      "uid": "AT3037-D",
      "name": "辛亥路大門警衛室",
      "name_en": "The campus gate on Xin Hai Road",
      "wkt": "POINT (121.54334286819312 25.02076273886358)",
      "lon": "121.54334286819312",
      "lat": "25.02076273886358"
    },
    {
      "uid": "AT4023",
      "name": "地質館",
      "name_en": "Dept. of Geosciences",
      "wkt": "POINT (121.53724336591334 25.014709535530415)",
      "lon": "121.53724336591334",
      "lat": "25.014709535530415"
    },
    {
      "uid": "AT1017",
      "name": "思亮館",
      "name_en": "Shih - Liang Hall",
      "wkt": "POINT (121.53851188851252 25.020847787637496)",
      "lon": "121.53851188851252",
      "lat": "25.020847787637496"
    },
    {
      "uid": "AT2012",
      "name": "農藝館",
      "name_en": "Dept. of Agronomy",
      "wkt": "POINT (121.54075201344943 25.018271346737897)",
      "lon": "121.54075201344943",
      "lat": "25.018271346737897"
    },
    {
      "uid": "AT6011",
      "name": "環境研究大樓",
      "name_en": "Environment Research Building",
      "wkt": "POINT (121.54482392442154 25.012015617650924)",
      "lon": "121.54482392442154",
      "lat": "25.012015617650924"
    },
    {
      "uid": "AT4014-C",
      "name": "自動控溫管理室",
      "name_en": null,
      "wkt": "POINT (121.53971887552699 25.014431361619767)",
      "lon": "121.53971887552699",
      "lat": "25.014431361619767"
    },
    {
      "uid": "AN1022",
      "name": "生化所",
      "name_en": "Graduate Institute of Biochemical Science",
      "wkt": "POINT (121.5386222171456 25.019351596257362)",
      "lon": "121.5386222171456",
      "lat": "25.019351596257362"
    },
    {
      "uid": "AT4023-1",
      "name": "地質科學館",
      "name_en": "Dept. of Geosciences",
      "wkt": "POINT (121.53720414505854 25.014943025451988)",
      "lon": "121.53720414505854",
      "lat": "25.014943025451988"
    },
    {
      "uid": "AT1044",
      "name": "博雅教學館",
      "name_en": "Boya Lecture Building",
      "wkt": "POINT (121.53669691471904 25.018890019146916)",
      "lon": "121.53669691471904",
      "lat": "25.018890019146916"
    },
    {
      "uid": "AT4019",
      "name": "大氣科學館",
      "name_en": "Dept. of Atmospheric Sciences",
      "wkt": "POINT (121.53892223575504 25.01482309990497)",
      "lon": "121.53892223575504",
      "lat": "25.01482309990497"
    },
    {
      "uid": "AT2033",
      "name": "農化系實驗室",
      "name_en": "Laboratory of Agricultural Chemistry",
      "wkt": "POINT (121.53678754226453 25.01560666229471)",
      "lon": "121.53678754226453",
      "lat": "25.01560666229471"
    },
    {
      "uid": "AT3010",
      "name": "農機館",
      "name_en": "Dept. of Bio - industrial Mechantronics Engeering",
      "wkt": "POINT (121.54277403088952 25.017949282809916)",
      "lon": "121.54277403088952",
      "lat": "25.017949282809916"
    },
    {
      "uid": "CT2002",
      "name": "臺大校友會館",
      "name_en": "NTU Alumni Club",
      "wkt": "POINT (121.51960698445757 25.04290644913726)",
      "lon": "121.51960698445757",
      "lat": "25.04290644913726"
    },
    {
      "uid": "AT4030-1",
      "name": "管理學院二號館",
      "name_en": "Building 2, College of Management",
      "wkt": "POINT (121.53686792990717 25.013123900299732)",
      "lon": "121.53686792990717",
      "lat": "25.013123900299732"
    },
    {
      "uid": "AT4031",
      "name": "生命科學館",
      "name_en": "Life Science Building",
      "wkt": "POINT (121.53874039979148 25.01543053805387)",
      "lon": "121.53874039979148",
      "lat": "25.01543053805387"
    },
    {
      "uid": "KT0101-B",
      "name": "太子學舍長興舍區",
      "name_en": "Prince House - NTU Chang Hsing Dorms",
      "wkt": "POINT (121.54589651770225 25.017187084882284)",
      "lon": "121.54589651770225",
      "lat": "25.017187084882284"
    },
    {
      "uid": "AT2015",
      "name": "一號館",
      "name_en": "Building No.1",
      "wkt": "POINT (121.53473277325969 25.016807618833752)",
      "lon": "121.53473277325969",
      "lat": "25.016807618833752"
    },
    {
      "uid": "BT1008-A",
      "name": "社科院學生活動中心 (舊址)",
      "name_en": "",
      "wkt": "POINT (121.52432245124345 25.040687599406333)",
      "lon": "121.52432245124345",
      "lat": "25.040687599406333"
    },
    {
      "uid": "AT2044",
      "name": "水工試驗大樓",
      "name_en": "Hydrotech Research Institute",
      "wkt": "POINT (121.53909444466025 25.01635931796875)",
      "lon": "121.53909444466025",
      "lat": "25.01635931796875"
    },
    {
      "uid": "AT1039",
      "name": "綜合體育館",
      "name_en": "Sports Center",
      "wkt": "POINT (121.53517674321395 25.02162026557548)",
      "lon": "121.53517674321395",
      "lat": "25.02162026557548"
    },
    {
      "uid": "AT2031",
      "name": "植物系研究室(舊館)",
      "name_en": "Old Botany Lab",
      "wkt": "POINT (121.53625779647754 25.015384360775958)",
      "lon": "121.53625779647754",
      "lat": "25.015384360775958"
    },
    {
      "uid": "AT3044",
      "name": "霖澤館",
      "name_en": "Tsai Lecture Hall",
      "wkt": "POINT (121.54374710480826 25.020598378119043)",
      "lon": "121.54374710480826",
      "lat": "25.020598378119043"
    },
    {
      "uid": "AT4003",
      "name": "工程科學及海洋工程學系",
      "name_en": "Dept. of Engineering Science and Ocean Engineering",
      "wkt": "POINT (121.54252205991496 25.01707906846591)",
      "lon": "121.54252205991496",
      "lat": "25.01707906846591"
    },
    {
      "uid": "xx0000",
      "name": "臺大癌醫中心",
      "name_en": "NTU Cancer Center",
      "wkt": "POINT (121.54438567197755 25.014797782508033)",
      "lon": "121.54438567197755",
      "lat": "25.014797782508033"
    },
    {
      "uid": "KT0101-2",
      "name": "太子學舍長興舍區",
      "name_en": "Prince House - NTU Chang Hsing Dorms",
      "wkt": "POINT (121.54483605466562 25.017186012915)",
      "lon": "121.54483605466562",
      "lat": "25.017186012915"
    },
    {
      "uid": "AT2006",
      "name": "文學院",
      "name_en": "College of Liberal Arts",
      "wkt": "POINT (121.536792323138 25.017893092886094)",
      "lon": "121.536792323138",
      "lat": "25.017893092886094"
    },
    {
      "uid": "AT2025",
      "name": "第一女研究生宿舍",
      "name_en": "1st Women's Graduate Dorm",
      "wkt": "POINT (121.53540226919864 25.01492957511009)",
      "lon": "121.53540226919864",
      "lat": "25.01492957511009"
    },
    {
      "uid": "AT5037-D",
      "name": "牛舍",
      "name_en": null,
      "wkt": "POINT (121.54427633423529 25.013051339447337)",
      "lon": "121.54427633423529",
      "lat": "25.013051339447337"
    },
    {
      "uid": "AT6004",
      "name": "農業昆蟲館",
      "name_en": "Agricultural Insect Hall",
      "wkt": "POINT (121.54777847482451 25.01268153093465)",
      "lon": "121.54777847482451",
      "lat": "25.01268153093465"
    },
    {
      "uid": "AT1002-A",
      "name": "司令臺",
      "name_en": null,
      "wkt": "POINT (121.53432396337594 25.01968104891077)",
      "lon": "121.53432396337594",
      "lat": "25.01968104891077"
    },
    {
      "uid": "AT5037-Q",
      "name": "畜產系羊舍(動物科學技術學系)",
      "name_en": null,
      "wkt": "POINT (121.54464135781409 25.012467008364116)",
      "lon": "121.54464135781409",
      "lat": "25.012467008364116"
    },
    {
      "uid": "AT3001",
      "name": "資訊工程館",
      "name_en": "C.S.I.E. Building",
      "wkt": "POINT (121.54160614575811 25.01953176351848)",
      "lon": "121.54160614575811",
      "lat": "25.01953176351848"
    },
    {
      "uid": "AT1038",
      "name": "物理學系/ 凝態科學研究中心",
      "name_en": "Dept. of Physics / Center for Condensed Matter Sciences",
      "wkt": "POINT (121.53662500389527 25.021796097501237)",
      "lon": "121.53662500389527",
      "lat": "25.021796097501237"
    },
    {
      "uid": "XXXX20",
      "name": "教職員宿舍",
      "name_en": "Staff Dorm",
      "wkt": "POINT (121.54581699698466 25.01893834948101)",
      "lon": "121.54581699698466",
      "lat": "25.01893834948101"
    },
    {
      "uid": "AT2030-F",
      "name": "保管組倉庫",
      "name_en": "Storehouse for Property Management Division",
      "wkt": "POINT (121.53577321980623 25.015706301233568)",
      "lon": "121.53577321980623",
      "lat": "25.015706301233568"
    },
    {
      "uid": "CT1001",
      "name": "護理系館",
      "name_en": "School of Nursing",
      "wkt": "POINT (121.51957831619005 25.041383694138165)",
      "lon": "121.51957831619005",
      "lat": "25.041383694138165"
    },
    {
      "uid": "AT1037",
      "name": "工學院綜合大樓",
      "name_en": "College of Engineering Building",
      "wkt": "POINT (121.54062830027702 25.018962951324166)",
      "lon": "121.54062830027702",
      "lat": "25.018962951324166"
    },
    {
      "uid": "AT3013",
      "name": "中非大樓",
      "name_en": "Zhung Fei Building",
      "wkt": "POINT (121.54355766204812 25.018254840093224)",
      "lon": "121.54355766204812",
      "lat": "25.018254840093224"
    },
    {
      "uid": "AT3003-1",
      "name": "電機二館",
      "name_en": "E. E. Building No. 2",
      "wkt": "POINT (121.54179489068258 25.018806202347793)",
      "lon": "121.54179489068258",
      "lat": "25.018806202347793"
    },
    {
      "uid": "XX0100",
      "name": "國立臺灣大學醫學院附設醫院雲林分院虎尾院區",
      "name_en": "",
      "wkt": "POINT (120.42695722186805 23.734871492304652)",
      "lon": "120.42695722186805",
      "lat": "23.734871492304652"
    },
    {
      "uid": "AT5038-N",
      "name": "燻煙室",
      "name_en": null,
      "wkt": "POINT (121.54356416908672 25.01296878926173)",
      "lon": "121.54356416908672",
      "lat": "25.01296878926173"
    },
    {
      "uid": "AT4026-3",
      "name": "推廣教育大樓",
      "name_en": "Continuing Education Building",
      "wkt": "POINT (121.53737142580542 25.011850568010587)",
      "lon": "121.53737142580542",
      "lat": "25.011850568010587"
    },
    {
      "uid": "AT2027-1",
      "name": "二號館",
      "name_en": "Building No.2",
      "wkt": "POINT (121.53630482974128 25.016655845193487)",
      "lon": "121.53630482974128",
      "lat": "25.016655845193487"
    },
    {
      "uid": "AT4010-B",
      "name": "舊高等農林學校作業室（磯永吉紀念室）",
      "name_en": "Working house of former Taihoku Senior School of Agriculture and Forestry",
      "wkt": "POINT (121.54115386450474 25.015875480470022)",
      "lon": "121.54115386450474",
      "lat": "25.015875480470022"
    },
    {
      "uid": "AT2022",
      "name": "女五舍",
      "name_en": "5th Women's Dorm",
      "wkt": "POINT (121.53532059212559 25.015803775242222)",
      "lon": "121.53532059212559",
      "lat": "25.015803775242222"
    },
    {
      "uid": "AT1025",
      "name": "水產養殖池",
      "name_en": "Aquaculture pond",
      "wkt": "POINT (121.53937027429325 25.020871074107255)",
      "lon": "121.53937027429325",
      "lat": "25.020871074107255"
    },
    {
      "uid": "AT1023",
      "name": "電機一館",
      "name_en": "EE Building No.1",
      "wkt": "POINT (121.53867755245676 25.019050284409758)",
      "lon": "121.53867755245676",
      "lat": "25.019050284409758"
    },
    {
      "uid": "AT5038-D",
      "name": "雞舍",
      "name_en": null,
      "wkt": "POINT (121.54424297518193 25.01336309070596)",
      "lon": "121.54424297518193",
      "lat": "25.01336309070596"
    },
    {
      "uid": "AT3001-1",
      "name": "德田館",
      "name_en": "Der Tian Hall",
      "wkt": "POINT (121.54168546200579 25.019273951486955)",
      "lon": "121.54168546200579",
      "lat": "25.019273951486955"
    },
    {
      "uid": "CN1002",
      "name": "臺大醫院東址",
      "name_en": "NTUH East Site Main Building",
      "wkt": "POINT (121.51958245588477 25.040562433361597)",
      "lon": "121.51958245588477",
      "lat": "25.040562433361597"
    },
    {
      "uid": "AT2030-B",
      "name": "性別平等教育委員會",
      "name_en": "Gender Equity Education Committee",
      "wkt": "POINT (121.53584710830103 25.015984645923236)",
      "lon": "121.53584710830103",
      "lat": "25.015984645923236"
    },
    {
      "uid": "AT4004",
      "name": "海洋工程綜合實驗室",
      "name_en": "Ocean Engineering Lab",
      "wkt": "POINT (121.54269702039717 25.016896634749816)",
      "lon": "121.54269702039717",
      "lat": "25.016896634749816"
    },
    {
      "uid": "AN1024-1",
      "name": "原子與分子科學研究所",
      "name_en": "Institute of Atomic and Molecular Sciences",
      "wkt": "POINT (121.53875529889508 25.018651092951444)",
      "lon": "121.53875529889508",
      "lat": "25.018651092951444"
    },
    {
      "uid": "AT2016-A",
      "name": "漁業生物實驗室",
      "name_en": null,
      "wkt": "POINT (121.53428742479237 25.016507446719334)",
      "lon": "121.53428742479237",
      "lat": "25.016507446719334"
    },
    {
      "uid": "AT5002",
      "name": "男六舍",
      "name_en": "6th Men's Dorm",
      "wkt": "POINT (121.54543775018107 25.016787799807634)",
      "lon": "121.54543775018107",
      "lat": "25.016787799807634"
    },
    {
      "uid": "AT2036-B",
      "name": "五號館",
      "name_en": "Building No.5",
      "wkt": "POINT (121.53792675952276 25.016442169146213)",
      "lon": "121.53792675952276",
      "lat": "25.016442169146213"
    },
    {
      "uid": "AT4025",
      "name": "管理學院一號館",
      "name_en": "Building 1, College of Management",
      "wkt": "POINT (121.53802296369776 25.0139198363478)",
      "lon": "121.53802296369776",
      "lat": "25.0139198363478"
    },
    {
      "uid": "AT2030",
      "name": "行政大樓西側平房",
      "name_en": "Administration Building westside cottage",
      "wkt": "POINT (121.53619207886712 25.015759694456573)",
      "lon": "121.53619207886712",
      "lat": "25.015759694456573"
    },
    {
      "uid": "AT4038",
      "name": "禮賢樓",
      "name_en": "Lixian Hall",
      "wkt": "POINT (121.53785845432033 25.014540255115126)",
      "lon": "121.53785845432033",
      "lat": "25.014540255115126"
    },
    {
      "uid": "AT4026",
      "name": "推廣教育大樓",
      "name_en": "Continuing Education Building",
      "wkt": "POINT (121.53709651206808 25.01195562030404)",
      "lon": "121.53709651206808",
      "lat": "25.01195562030404"
    },
    {
      "uid": "AT1035",
      "name": "語言大樓",
      "name_en": "Language Building",
      "wkt": "POINT (121.54083702115277 25.020676653021376)",
      "lon": "121.54083702115277",
      "lat": "25.020676653021376"
    },
    {
      "uid": "AT2031-A",
      "name": "望樂樓",
      "name_en": "Hall of Joy and Hope",
      "wkt": "POINT (121.53624686255472 25.015170839939064)",
      "lon": "121.53624686255472",
      "lat": "25.015170839939064"
    },
    {
      "uid": "AT2018-D",
      "name": "女三舍車棚3",
      "name_en": null,
      "wkt": "POINT (121.53480195708131 25.015949483332175)",
      "lon": "121.53480195708131",
      "lat": "25.015949483332175"
    },
    {
      "uid": "AT2001",
      "name": "農業陳列館",
      "name_en": "Agricultural Exhibition Hall",
      "wkt": "POINT (121.53419688760597 25.01814177651473)",
      "lon": "121.53419688760597",
      "lat": "25.01814177651473"
    },
    {
      "uid": "AT5037",
      "name": "動物科學技術學系",
      "name_en": "Dept. of Animal Science & Technology",
      "wkt": "POINT (121.54429205478357 25.01255788178347)",
      "lon": "121.54429205478357",
      "lat": "25.01255788178347"
    },
    {
      "uid": "AT5015",
      "name": "中華經濟研究院",
      "name_en": "Chung Hua Institute for Economic Research",
      "wkt": "POINT (121.5468070409277 25.01608762844666)",
      "lon": "121.5468070409277",
      "lat": "25.01608762844666"
    },
    {
      "uid": "AT2038-A",
      "name": "農產品展售中心",
      "name_en": "Agricultural Product Sales Center",
      "wkt": "POINT (121.53811939193733 25.01586007366579)",
      "lon": "121.53811939193733",
      "lat": "25.01586007366579"
    },
    {
      "uid": "BT1015",
      "name": "公衛大樓",
      "name_en": "College of Public Health",
      "wkt": "POINT (121.52306001571345 25.041269101937555)",
      "lon": "121.52306001571345",
      "lat": "25.041269101937555"
    },
    {
      "uid": "CT1006",
      "name": "藥學系館(六號館)",
      "name_en": "Historical building of School of Pharmacy",
      "wkt": "POINT (121.52075541708452 25.041166029952013)",
      "lon": "121.52075541708452",
      "lat": "25.041166029952013"
    },
    {
      "uid": "AT1018",
      "name": "數學館",
      "name_en": "Dept. of Mathematics",
      "wkt": "POINT (121.53841571048657 25.020353501264147)",
      "lon": "121.53841571048657",
      "lat": "25.020353501264147"
    },
    {
      "uid": "AT1026",
      "name": "漁業科學館",
      "name_en": "Fisheries Science Research Building",
      "wkt": "POINT (121.5394277563061 25.020529349862997)",
      "lon": "121.5394277563061",
      "lat": "25.020529349862997"
    },
    {
      "uid": "KT0101-A",
      "name": "太子學舍長興舍區",
      "name_en": "Prince House - NTU Chang Hsing Dorms",
      "wkt": "POINT (121.54553110339931 25.017546465567055)",
      "lon": "121.54553110339931",
      "lat": "25.017546465567055"
    },
    {
      "uid": "AT4036",
      "name": "綠房子",
      "name_en": "Eco-House",
      "wkt": "POINT (121.54116414394399 25.015121657348956)",
      "lon": "121.54116414394399",
      "lat": "25.015121657348956"
    },
    {
      "uid": "AT2025-B",
      "name": "研究生宿舍車棚2",
      "name_en": "",
      "wkt": "POINT (121.53555332177405 25.015215125482804)",
      "lon": "121.53555332177405",
      "lat": "25.015215125482804"
    },
    {
      "uid": "AT5037-J",
      "name": "畜產系飼料倉庫(動物科學技術學系)",
      "name_en": null,
      "wkt": "POINT (121.54391285726335 25.012607482465846)",
      "lon": "121.54391285726335",
      "lat": "25.012607482465846"
    },
    {
      "uid": "AT2038-B",
      "name": "舟山路警衛室",
      "name_en": "police box",
      "wkt": "POINT (121.53759346251584 25.01555990570124)",
      "lon": "121.53759346251584",
      "lat": "25.01555990570124"
    },
    {
      "uid": "AT6014",
      "name": "永齡生醫工程館",
      "name_en": "Yonglin Biomedical Engineering Hall",
      "wkt": "POINT (121.54724281954388 25.013682738300883)",
      "lon": "121.54724281954388",
      "lat": "25.013682738300883"
    },
    {
      "uid": "AN5038-O",
      "name": "畜產加工館",
      "name_en": null,
      "wkt": "POINT (121.54329704700324 25.013232862782147)",
      "lon": "121.54329704700324",
      "lat": "25.013232862782147"
    },
    {
      "uid": "AT4026-2",
      "name": "推廣教育大樓",
      "name_en": "Continuing Education Building",
      "wkt": "POINT (121.53724291998616 25.011975456135612)",
      "lon": "121.53724291998616",
      "lat": "25.011975456135612"
    },
    {
      "uid": "AT1015",
      "name": "小福樓",
      "name_en": "Xiao-Fu Square",
      "wkt": "POINT (121.5373152587621 25.018586869464226)",
      "lon": "121.5373152587621",
      "lat": "25.018586869464226"
    },
    {
      "uid": "KT0100-D",
      "name": "太子學舍水源舍區",
      "name_en": "Prince House-NTU ShuiYuan Dorms",
      "wkt": "POINT (121.53048120198982 25.014204968916236)",
      "lon": "121.53048120198982",
      "lat": "25.014204968916236"
    },
    {
      "uid": "KT0032",
      "name": "飲水樓",
      "name_en": "Archives",
      "wkt": "POINT (121.52870578084311 25.01391172550493)",
      "lon": "121.52870578084311",
      "lat": "25.01391172550493"
    },
    {
      "uid": "AT5039",
      "name": "昆蟲館",
      "name_en": "Dept. of Entomology",
      "wkt": "POINT (121.54067253248483 25.011089798233133)",
      "lon": "121.54067253248483",
      "lat": "25.011089798233133"
    },
    {
      "uid": "AT2006-A",
      "name": "文學院研究大樓",
      "name_en": "Liberal Arts Research Building",
      "wkt": "POINT (121.53609862797842 25.018004486923356)",
      "lon": "121.53609862797842",
      "lat": "25.018004486923356"
    },
    {
      "uid": "AT2019",
      "name": "女二舍",
      "name_en": "2nd Women's Dorm",
      "wkt": "POINT (121.53449439495292 25.015689919408644)",
      "lon": "121.53449439495292",
      "lat": "25.015689919408644"
    },
    {
      "uid": "KT0101-1",
      "name": "太子學舍長興舍區",
      "name_en": "Prince House - NTU Chang Hsing Dorms",
      "wkt": "POINT (121.54502624615913 25.01734759038316)",
      "lon": "121.54502624615913",
      "lat": "25.01734759038316"
    },
    {
      "uid": "AT1047",
      "name": "機械系館/宗倬章館",
      "name_en": "Dept. of Mechanical Engineering / TSUNG Cho Chang Hall",
      "wkt": "POINT (121.5395982881653 25.018941642641778)",
      "lon": "121.5395982881653",
      "lat": "25.018941642641778"
    },
    {
      "uid": "AT1005",
      "name": "游泳池",
      "name_en": "Swimming Pool",
      "wkt": "POINT (121.53639560186721 25.020664523122274)",
      "lon": "121.53639560186721",
      "lat": "25.020664523122274"
    },
    {
      "uid": "AT4022",
      "name": "鹿鳴堂",
      "name_en": "LuMing Hall",
      "wkt": "POINT (121.53759963997767 25.01511462592387)",
      "lon": "121.53759963997767",
      "lat": "25.01511462592387"
    },
    {
      "uid": "BT1011",
      "name": "綜合大樓(三研大樓)",
      "name_en": "Common Building",
      "wkt": "POINT (121.52547499885618 25.040506664646752)",
      "lon": "121.52547499885618",
      "lat": "25.040506664646752"
    },
    {
      "uid": "AT2036-A",
      "name": "五號館",
      "name_en": "Building No.5",
      "wkt": "POINT (121.53732173530803 25.01658738729932)",
      "lon": "121.53732173530803",
      "lat": "25.01658738729932"
    },
    {
      "uid": "AT2010",
      "name": "圖書資訊館",
      "name_en": "Dept. of Library and Information Sciences",
      "wkt": "POINT (121.5393888440497 25.017873257706018)",
      "lon": "121.5393888440497",
      "lat": "25.017873257706018"
    },
    {
      "uid": "AT6016-A",
      "name": "植物育種研究溫室之工作室",
      "name_en": null,
      "wkt": "POINT (121.54797922746387 25.01291349053658)",
      "lon": "121.54797922746387",
      "lat": "25.01291349053658"
    },
    {
      "uid": "AN6008",
      "name": "園藝教學管理研究室",
      "name_en": "Horticultural Research Lab",
      "wkt": "POINT (121.5467147571743 25.013582012003234)",
      "lon": "121.5467147571743",
      "lat": "25.013582012003234"
    },
    {
      "uid": "AT2032-A",
      "name": "行政大樓",
      "name_en": "Administration Building",
      "wkt": "POINT (121.53678878716973 25.015936323203075)",
      "lon": "121.53678878716973",
      "lat": "25.015936323203075"
    },
    {
      "uid": "AT1028",
      "name": "女九舍",
      "name_en": "9th Women's Dorm",
      "wkt": "POINT (121.53939160272238 25.019659140492767)",
      "lon": "121.53939160272238",
      "lat": "25.019659140492767"
    },
    {
      "uid": "AT2047",
      "name": "航空測量館",
      "name_en": "Remote Sensing Building",
      "wkt": "POINT (121.53966475218132 25.016499675419887)",
      "lon": "121.53966475218132",
      "lat": "25.016499675419887"
    },
    {
      "uid": "AT2032-1",
      "name": "行政大樓",
      "name_en": "Administration Building",
      "wkt": "POINT (121.5367904438772 25.015984141338325)",
      "lon": "121.5367904438772",
      "lat": "25.015984141338325"
    },
    {
      "uid": "AT3048",
      "name": "基隆路溫室",
      "name_en": null,
      "wkt": "POINT (121.54595456768205 25.019138583261554)",
      "lon": "121.54595456768205",
      "lat": "25.019138583261554"
    },
    {
      "uid": "AT2029",
      "name": "農化新館/敬賢樓",
      "name_en": "New Agricultural Chemistry Building / Jingxian Hall",
      "wkt": "POINT (121.53593467174012 25.016196866021268)",
      "lon": "121.53593467174012",
      "lat": "25.016196866021268"
    },
    {
      "uid": "AT2036",
      "name": "五號館",
      "name_en": "Building No.5",
      "wkt": "POINT (121.53762480146692 25.016485259937657)",
      "lon": "121.53762480146692",
      "lat": "25.016485259937657"
    },
    {
      "uid": "CT1008",
      "name": "醫學院男二女六舍",
      "name_en": "2nd Men's Dorm / 6th Women's Dorm",
      "wkt": "POINT (121.52155036718293 25.040956167213004)",
      "lon": "121.52155036718293",
      "lat": "25.040956167213004"
    },
    {
      "uid": "AN1024",
      "name": "原分所",
      "name_en": "Institute of Atomic and Molecular Sciences",
      "wkt": "POINT (121.53826754127842 25.018684214163745)",
      "lon": "121.53826754127842",
      "lat": "25.018684214163745"
    },
    {
      "uid": "AT2037",
      "name": "農業綜合大樓",
      "name_en": "College of Agriculture Building",
      "wkt": "POINT (121.5376264579784 25.01619140367789)",
      "lon": "121.5376264579784",
      "lat": "25.01619140367789"
    },
    {
      "uid": "AT5038-G",
      "name": "豬舍",
      "name_en": null,
      "wkt": "POINT (121.54376713555983 25.01333623128201)",
      "lon": "121.54376713555983",
      "lat": "25.01333623128201"
    },
    {
      "uid": "AT1032",
      "name": "外語教學暨資源中心",
      "name_en": "Foreign Language Teaching & Resource Center",
      "wkt": "POINT (121.54028020760204 25.020521437309625)",
      "lon": "121.54028020760204",
      "lat": "25.020521437309625"
    },
    {
      "uid": "AT4029-B",
      "name": "多功能生活廳〔管理學院教學館旁P-304(原餐廳)(管院活動中心)〕",
      "name_en": null,
      "wkt": "POINT (121.53837559105834 25.013430451206204)",
      "lon": "121.53837559105834",
      "lat": "25.013430451206204"
    },
    {
      "uid": "AT2034-E",
      "name": "小小福",
      "name_en": "Xiao Xiao Fu Commissary",
      "wkt": "POINT (121.53721835454125 25.015447162091313)",
      "lon": "121.53721835454125",
      "lat": "25.015447162091313"
    },
    {
      "uid": "AT5042",
      "name": "國家地震中心",
      "name_en": "National Center for Research on Earthquake Engineering",
      "wkt": "POINT (121.54790651318216 25.017143482456603)",
      "lon": "121.54790651318216",
      "lat": "25.017143482456603"
    },
    {
      "uid": "AT1019",
      "name": "數學研究中心",
      "name_en": "Mathematics Research Center Building",
      "wkt": "POINT (121.53851850466565 25.020084258526843)",
      "lon": "121.53851850466565",
      "lat": "25.020084258526843"
    },
    {
      "uid": "AT3003",
      "name": "電機二館",
      "name_en": "E. E. Building No. 2",
      "wkt": "POINT (121.54224743654609 25.018763581756993)",
      "lon": "121.54224743654609",
      "lat": "25.018763581756993"
    },
    {
      "uid": "KT0041",
      "name": "思源樓",
      "name_en": "SiYuan Hall",
      "wkt": "POINT (121.52865866697996 25.013051772989577)",
      "lon": "121.52865866697996",
      "lat": "25.013051772989577"
    },
    {
      "uid": "KT0100-A",
      "name": "太子學舍水源舍區",
      "name_en": "Prince House-NTU ShuiYuan Dorms",
      "wkt": "POINT (121.53025686351425 25.01473289601788)",
      "lon": "121.53025686351425",
      "lat": "25.01473289601788"
    },
    {
      "uid": "AT3039",
      "name": "國家發展所大樓",
      "name_en": "Graduate Institute of National Development",
      "wkt": "POINT (121.54296530838276 25.020166071248443)",
      "lon": "121.54296530838276",
      "lat": "25.020166071248443"
    },
    {
      "uid": "AT4020",
      "name": "食品科技館",
      "name_en": "Food Science and Technology Building",
      "wkt": "POINT (121.53897806623617 25.01402243484366)",
      "lon": "121.53897806623617",
      "lat": "25.01402243484366"
    },
    {
      "uid": "AT1011",
      "name": "海洋研究所",
      "name_en": "Graduate Institute of Oceanography",
      "wkt": "POINT (121.53718659771232 25.021291863444194)",
      "lon": "121.53718659771232",
      "lat": "25.021291863444194"
    },
    {
      "uid": "AT2015-A",
      "name": "動物標本館",
      "name_en": null,
      "wkt": "POINT (121.53481854370204 25.016613106362268)",
      "lon": "121.53481854370204",
      "lat": "25.016613106362268"
    },
    {
      "uid": "BT1006",
      "name": "男四宿舍",
      "name_en": "4th Men's Dorm",
      "wkt": "POINT (121.52314219760319 25.0419901934131)",
      "lon": "121.52314219760319",
      "lat": "25.0419901934131"
    },
    {
      "uid": "CN1009",
      "name": "醫學院體育館",
      "name_en": "Gym",
      "wkt": "POINT (121.52139680993868 25.040565824447835)",
      "lon": "121.52139680993868",
      "lat": "25.040565824447835"
    },
    {
      "uid": "AT4023-D",
      "name": null,
      "name_en": null,
      "wkt": "POINT (121.53704488796717 25.01459066656591)",
      "lon": "121.53704488796717",
      "lat": "25.01459066656591"
    },
    {
      "uid": "AT3042",
      "name": "博理館",
      "name_en": "Barry Lam Hall",
      "wkt": "POINT (121.54226215117504 25.01929103788668)",
      "lon": "121.54226215117504",
      "lat": "25.01929103788668"
    },
    {
      "uid": "AT1031",
      "name": "計算機及資訊網路中心",
      "name_en": "Computer  and Information Networking Center",
      "wkt": "POINT (121.53984464454491 25.020877547098138)",
      "lon": "121.53984464454491",
      "lat": "25.020877547098138"
    },
    {
      "uid": "KT0027",
      "name": "育成中心B棟",
      "name_en": "Incubation Center Building B",
      "wkt": "POINT (121.52931060693298 25.013133800337755)",
      "lon": "121.52931060693298",
      "lat": "25.013133800337755"
    },
    {
      "uid": "AT2038",
      "name": "共同教學館",
      "name_en": "Gongtong Lecture Building",
      "wkt": "POINT (121.53757317681871 25.01582282114303)",
      "lon": "121.53757317681871",
      "lat": "25.01582282114303"
    },
    {
      "uid": "AT2048",
      "name": "花卉館",
      "name_en": "Floriculture Hall",
      "wkt": "POINT (121.53867626265718 25.016609974705382)",
      "lon": "121.53867626265718",
      "lat": "25.016609974705382"
    },
    {
      "uid": "AT2018-E",
      "name": "女三舍車棚4",
      "name_en": "",
      "wkt": "POINT (121.5346210309025 25.015883202310707)",
      "lon": "121.5346210309025",
      "lat": "25.015883202310707"
    },
    {
      "uid": "HT1008",
      "name": "溫州街眷舍(臺靜農故居)",
      "name_en": null,
      "wkt": "POINT (121.53363877609164 25.0246628776333)",
      "lon": "121.53363877609164",
      "lat": "25.0246628776333"
    },
    {
      "uid": "KT0045",
      "name": "卓越研究大樓",
      "name_en": "Complex for Research Excellence",
      "wkt": "POINT (121.52831291943919 25.014633164392695)",
      "lon": "121.52831291943919",
      "lat": "25.014633164392695"
    },
    {
      "uid": "AT4014",
      "name": "精密溫室",
      "name_en": "Precision Greenhouse",
      "wkt": "POINT (121.5394448718853 25.014850154385453)",
      "lon": "121.5394448718853",
      "lat": "25.014850154385453"
    },
    {
      "uid": "KT0100-C",
      "name": "太子學舍水源舍區",
      "name_en": "Prince House-NTU ShuiYuan Dorms",
      "wkt": "POINT (121.52922259218691 25.01519791221471)",
      "lon": "121.52922259218691",
      "lat": "25.01519791221471"
    },
    {
      "uid": "AT2014",
      "name": "傅斯年紀念碑",
      "name_en": "Si-nian Mausoleum",
      "wkt": "POINT (121.53375858721425 25.01632262458289)",
      "lon": "121.53375858721425",
      "lat": "25.01632262458289"
    },
    {
      "uid": "BT1016",
      "name": "水森館",
      "name_en": "Shui-Sen Hall",
      "wkt": "POINT (121.52301033286469 25.041658656457088)",
      "lon": "121.52301033286469",
      "lat": "25.041658656457088"
    },
    {
      "uid": "NT1001",
      "name": "鋤禾館",
      "name_en": "",
      "wkt": "POINT (120.42505505661447 23.730817926966917)",
      "lon": "120.42505505661447",
      "lat": "23.730817926966917"
    },
    {
      "uid": "AT4016",
      "name": "造園館",
      "name_en": "Landscape and Gardening Building",
      "wkt": "POINT (121.5399604630881 25.014036567714005)",
      "lon": "121.5399604630881",
      "lat": "25.014036567714005"
    },
    {
      "uid": "AT3045",
      "name": "萬才館",
      "name_en": "Wan Tsai Research Hall",
      "wkt": "POINT (121.54478262524077 25.01993509257515)",
      "lon": "121.54478262524077",
      "lat": "25.01993509257515"
    },
    {
      "uid": "AT2005-1",
      "name": "樂學館",
      "name_en": "Lesyue Building",
      "wkt": "POINT (121.53529509578642 25.018069211469825)",
      "lon": "121.53529509578642",
      "lat": "25.018069211469825"
    },
    {
      "uid": "AT1040",
      "name": "化學館",
      "name_en": "Department of Chemistry",
      "wkt": "POINT (121.53811046027795 25.019389365176053)",
      "lon": "121.53811046027795",
      "lat": "25.019389365176053"
    },
    {
      "uid": "AT4027-A",
      "name": "臺大附設幼稚園",
      "name_en": "NTU Kindergarten",
      "wkt": "POINT (121.53683338648415 25.013972487013582)",
      "lon": "121.53683338648415",
      "lat": "25.013972487013582"
    },
    {
      "uid": "AT5037-E",
      "name": "藏青室",
      "name_en": null,
      "wkt": "POINT (121.54412755214369 25.012897994975624)",
      "lon": "121.54412755214369",
      "lat": "25.012897994975624"
    },
    {
      "uid": "CN1011",
      "name": "會議中心暨醫學研究大樓",
      "name_en": "International Convention Center / Research Tower",
      "wkt": "POINT (121.52072945384117 25.04071087944388)",
      "lon": "121.52072945384117",
      "lat": "25.04071087944388"
    },
    {
      "uid": "AT1043",
      "name": "天文數學館",
      "name_en": "Astronomy - Mathematics Building",
      "wkt": "POINT (121.53812914158219 25.021287096421528)",
      "lon": "121.53812914158219",
      "lat": "25.021287096421528"
    },
    {
      "uid": "AT3002",
      "name": "機械系臨時工廠",
      "name_en": "Workshop of Mechanical Engineering",
      "wkt": "POINT (121.5423103979164 25.01955961741088)",
      "lon": "121.5423103979164",
      "lat": "25.01955961741088"
    },
    {
      "uid": "AT4010",
      "name": "農業試驗場辦公室",
      "name_en": "Office of NTU Farm",
      "wkt": "POINT (121.54156330322031 25.015543228208337)",
      "lon": "121.54156330322031",
      "lat": "25.015543228208337"
    },
    {
      "uid": "AT1006",
      "name": "體育館",
      "name_en": "Gymnasium",
      "wkt": "POINT (121.53651579392591 25.01971088677297)",
      "lon": "121.53651579392591",
      "lat": "25.01971088677297"
    },
    {
      "uid": "AT5043",
      "name": "土木研究大樓",
      "name_en": "Civil Engineering Research Building",
      "wkt": "POINT (121.54707591571926 25.017942195199527)",
      "lon": "121.54707591571926",
      "lat": "25.017942195199527"
    },
    {
      "uid": "BT1009",
      "name": "法學院研究大樓",
      "name_en": "Graduate Building",
      "wkt": "POINT (121.52457985230794 25.0414160582962)",
      "lon": "121.52457985230794",
      "lat": "25.0414160582962"
    }
  ]
}